[
  {
    "title": "Quater pass inturen al pais de Ubial e Claness",
    "date": "10/08/2025",
    "location": {
      "city": "Ubiale Clanezzo",
      "province": "BG"
    },
    "poster": "https://www.csibergamo.it/images/marce/10%20Agosto%20-%20Monte%20Ubione%201.jpg",
    "source": "CSI"
  },
  {
    "title": "Pegherandando",
    "date": "10/08/2025",
    "location": {
      "city": "Peghera-Taleggio",
      "province": "BG"
    },
    "poster": "https://www.csibergamo.it/images/marce/10-08%20PegherAndando.jpg",
    "source": "CSI"
  },
  {
    "title": "StraBerbenno",
    "date": "15/08/2025",
    "location": {
      "city": "Berbenno",
      "province": "BG"
    },
    "poster": "https://www.csibergamo.it/images/marce/15-08%20StraBerbenno-1.jpg",
    "source": "CSI"
  },
  {
    "title": "Mezzoldo - Ca' San Marco",
    "date": "16/08/2025",
    "location": {
      "city": "Mezzoldo",
      "province": "BG"
    },
    "poster": "https://www.csibergamo.it/images/marce/16-08%20Mezzoldo.png",
    "source": "CSI"
  },
  {
    "title": "Camminata della Tripla A",
    "date": "31/08/2025",
    "location": {
      "city": "Trescore Balneario",
      "province": "BG"
    },
    "poster": "https://www.csibergamo.it/images/marce/31-08%20camminata_tripla%20A_2025-1-1.jpg",
    "source": "CSI"
  },
  {
    "title": "Maratonina \"Camminiamo nel Verde\"",
    "date": "31/08/2025",
    "location": {
      "city": "Osio Sopra",
      "province": "BG"
    },
    "poster": "https://www.csibergamo.it/images/marce/31%20Agosto%20Camminiamo%20nel%20Verde-01.jpg",
    "source": "CSI"
  },
  {
    "title": "Stralemine",
    "date": "07/09/2025",
    "location": {
      "city": "Almenno San Bartolomeo",
      "province": "BG"
    },
    "poster": "https://www.csibergamo.it/images/marce/07-09%20Stralemine%201-1.jpg",
    "source": "CSI"
  },
  {
    "title": "La Corsa di Patty",
    "date": "07/09/2025",
    "location": {
      "city": "Chiuduno",
      "province": "BG"
    },
    "poster": "https://www.csibergamo.it/images/marce/07-09%20LacorsadiPatty2_flyer_WEB_2025-1.jpg",
    "source": "CSI"
  },
  {
    "title": "Quater salcc e öna biida per i strade de Gaerina",
    "date": "07/09/2025",
    "location": {
      "city": "Gaverina Terme",
      "province": "BG"
    },
    "poster": "https://www.csibergamo.it/images/marce/07-09%20Gaverina-2025-v2-1-1.jpg",
    "source": "CSI"
  },
  {
    "title": "52° EL GIR DI CENT FOO",
    "date": "10/08/2025",
    "location": {
      "city": "Barni",
      "province": "CO"
    },
    "poster": "https://drive.google.com/uc?export=view&id=1gASG4EhQY66OlS0f6Jf-Za8QgQa9p7H6",
    "source": "FIASP"
  },
  {
    "title": "7ª CAMMINATA SAN GAETANO",
    "date": "10/08/2025",
    "location": {
      "city": "Ponti sul Mincio",
      "province": "MN"
    },
    "poster": "https://drive.google.com/uc?export=view&id=1SWhw3IAv-NSkaEGAOeH33UawLqjwEmeh",
    "source": "FIASP"
  },
  {
    "title": "6ª MARCIA DI CIREGNA",
    "date": "10/08/2025",
    "location": {
      "city": "Ciregna di Ferriere [Centro]",
      "province": "PC"
    },
    "poster": "https://drive.google.com/uc?export=view&id=1zQsnQM51Zr0WDxeJPuf_GKyyC0JNGRRQ",
    "source": "FIASP"
  },
  {
    "title": "15° EL GIRO DELE FRAZIOM",
    "date": "10/08/2025",
    "location": {
      "city": "Brentonico",
      "province": "TN"
    },
    "poster": "https://drive.google.com/uc?export=view&id=1BT7ROvPs52VeUqNvUKqVE2_DzSgv49AY",
    "source": "FIASP"
  },
  {
    "title": "12ª MARCIA DELL'ASSUNTA",
    "date": "10/08/2025",
    "location": {
      "city": "Reana del Rojale",
      "province": "UD"
    },
    "poster": "https://drive.google.com/uc?export=view&id=1wLsAirwAXUtyfLP9ZefOBbQ81Vgeisag",
    "source": "FIASP"
  },
  {
    "title": "12° \"UN PASSO CON L'AMICIAD\" TRA NATURA ED ARCHEOLOGIA",
    "date": "10/08/2025",
    "location": {
      "city": "Rotzo - Scuole Elementari",
      "province": "VI"
    },
    "poster": "https://drive.google.com/uc?export=view&id=1xR0kxRIaC4AgaJRr-pL5UE0ZH_nCoZR_",
    "source": "FIASP"
  },
  {
    "title": "44ª CAMINADA DEI TRE ARCHI - 2° MEMORIAL GIOVANNI MARTINELLI - 15° TROFEO AVIS",
    "date": "10/08/2025",
    "location": {
      "city": "Via Chiesa,25 Albaredo d'Adige c/o Campo Fiera",
      "province": "VR"
    },
    "poster": "https://drive.google.com/uc?export=view&id=1I-dMlhMvbNUvvGp2RdSKmYmEn3TGZtuV",
    "source": "FIASP"
  },
  {
    "title": "5ª PERCORRENDO STRADE VECCHIE E NUOVE DI CUSIGNANA",
    "date": "13/08/2025",
    "location": {
      "city": "CUSIGNANA - GIAVERA DEL MONTELLO",
      "province": "TV"
    },
    "poster": "https://drive.google.com/uc?export=view&id=1DwQ-mO7MVUWGs6NeyMkuxncmC0PRDjJ5",
    "source": "FIASP"
  },
  {
    "title": "LA 19ª CAMMINATA CON LE TORCE TRA I SENTIERI DI CELANA A CAPRINO BERGAMASCO",
    "date": "14/08/2025",
    "location": {
      "city": "Caprino Bergamasco [Oratorio di Celana]",
      "province": "BG"
    },
    "poster": "https://drive.google.com/uc?export=view&id=1_TR0XjqWj2amWdJwWweM-FqXNOSjKWou",
    "source": "FIASP"
  },
  {
    "title": "18ª ATTORNO IL TORRENTE ARTUGNA",
    "date": "14/08/2025",
    "location": {
      "city": "Dardago di Budoia",
      "province": "PN"
    },
    "poster": "https://drive.google.com/uc?export=view&id=1r-fw0ZUMs7OoDeAvCpuIsnZ_vyCB65r3",
    "source": "FIASP"
  },
  {
    "title": "45ª MARCIA DI CASALI",
    "date": "15/08/2025",
    "location": {
      "city": "Casali di mofasso [Pro Loco Casali Centro]",
      "province": "PC"
    },
    "poster": "https://drive.google.com/uc?export=view&id=1V_b-yft3QoXS_ohQ-dmGE6z-lGxCu2BB",
    "source": "FIASP"
  },
  {
    "title": "32ª MARCIA \"CUL CJAPIEL\"",
    "date": "15/08/2025",
    "location": {
      "city": "Frisanco",
      "province": "PN"
    },
    "poster": "https://drive.google.com/uc?export=view&id=1qWkcdk8rpC47EOcj4cL5u8w0R7RDXxLr",
    "source": "FIASP"
  },
  {
    "title": "4° MEMORIAL \" ROBERTO SARTORI \"",
    "date": "15/08/2025",
    "location": {
      "city": "MALGA BROI - NOVALEDO",
      "province": "TN"
    },
    "poster": "https://drive.google.com/uc?export=view&id=1YTzHVPD5_uLqYHIxZRtacQ9RYBYuAQPg",
    "source": "FIASP"
  },
  {
    "title": "CAMMINIAMO INSIEME \" MEMORIAL FRANCO NEGRO \"",
    "date": "15/08/2025",
    "location": {
      "city": "Villanova delle Grotte",
      "province": "UD"
    },
    "poster": "https://drive.google.com/uc?export=view&id=1sThIwQVNgoXy1XHpNVViAZvg0bD9OXkx",
    "source": "FIASP"
  },
  {
    "title": "39ª MARCIA TRA PINI E CICLAMINI",
    "date": "15/08/2025",
    "location": {
      "city": "Castelvecchio di Valdagno [P.za V.Bicego]",
      "province": "VI"
    },
    "poster": "https://drive.google.com/uc?export=view&id=11NtCFjA4Fvr0t6ggDk_v6JyHsicdV1km",
    "source": "FIASP"
  },
  {
    "title": "MARCIAFLONGA",
    "date": "17/08/2025",
    "location": {
      "city": "davanti a Palazzo Cavriani,piazza Municipio,1-Felonica",
      "province": "MN"
    },
    "poster": "https://drive.google.com/uc?export=view&id=1yONbS70d9-K2sPux1v9YeR0c_QPTY8I_",
    "source": "FIASP"
  },
  {
    "title": "4ª INSIEME A FERRAGOSTO",
    "date": "17/08/2025",
    "location": {
      "city": "SCLAUNICCO DI LESTIZZA",
      "province": "UD"
    },
    "poster": "https://drive.google.com/uc?export=view&id=1BYjMZJK2q7-bhN7amQ5fVSGOGyKG1YiA",
    "source": "FIASP"
  },
  {
    "title": "MEMORIAL GIANCARLO TURRI - 10ª EDIZIONE",
    "date": "17/08/2025",
    "location": {
      "city": "Cavaion Veronese Strada Villa 9 presso frantoio Fratelli Turri",
      "province": "VR"
    },
    "poster": "https://drive.google.com/uc?export=view&id=1O4mokdRJ9ilWZQP06JYS901WtTOLQjBK",
    "source": "FIASP"
  },
  {
    "title": "1ª MARCIA DELLE BALDASSERIE",
    "date": "23/08/2025",
    "location": {
      "city": "PARROCCHIA SAN PIO X - Udine -",
      "province": "UD"
    },
    "poster": "https://drive.google.com/uc?export=view&id=1zKVlBBGymd6ARunbxFL-fsJVC71pzRpc",
    "source": "FIASP"
  },
  {
    "title": "3ª QUATRE PASS ANTURNE A MUSCASA'",
    "date": "24/08/2025",
    "location": {
      "city": "MOSCAZZANO",
      "province": "CR"
    },
    "poster": "https://drive.google.com/uc?export=view&id=1hza8qtB6XAx_J6TL6V_YORLusnIsT55a",
    "source": "FIASP"
  },
  {
    "title": "45ª MARCIA DELLA CONCORDIA",
    "date": "24/08/2025",
    "location": {
      "city": "S.Giuliano di Castelvetro [Ex Scuole]",
      "province": "PC"
    },
    "poster": "https://drive.google.com/uc?export=view&id=1-WLCrHTvjwsR0-o9u4KU2809_FvJdKIV",
    "source": "FIASP"
  },
  {
    "title": "47ª MARCIA FESTA IN PIASSA",
    "date": "24/08/2025",
    "location": {
      "city": "Pordenone [Quartiere Villanova]",
      "province": "PN"
    },
    "poster": "https://drive.google.com/uc?export=view&id=1aUKmLJg9ra--i9GxAeSOk8du0lv-jr_X",
    "source": "FIASP"
  },
  {
    "title": "10ª CJAMINADE “ BLAVE DI MORTEAN”",
    "date": "24/08/2025",
    "location": {
      "city": "Mortegliano",
      "province": "UD"
    },
    "poster": "https://drive.google.com/uc?export=view&id=1Ns6Rto-j2_-LAFP-hRw0Bzy_gD7jViJ9",
    "source": "FIASP"
  },
  {
    "title": "PASSEGGIATA SUI SENTIERI DELLE CORNIOLE DE.CO.",
    "date": "24/08/2025",
    "location": {
      "city": "Cornedo Vicentino - Piazza Aldo Moro",
      "province": "VI"
    },
    "poster": "https://drive.google.com/uc?export=view&id=1_i4thnnSwDkjL5Bq0R4U0uiy1L_QTSRX",
    "source": "FIASP"
  },
  {
    "title": "8ª CAMINADA DELLE CARNI BIANCHE",
    "date": "24/08/2025",
    "location": {
      "city": "Via Motta 2 - S. Pietro di Morubio (VR) dal Parco Villa Gobetti",
      "province": "VR"
    },
    "poster": "https://drive.google.com/uc?export=view&id=1UtaSeUVaop4k4ciEcC_F3uZBaeVlos0d",
    "source": "FIASP"
  },
  {
    "title": "TREKKING - VIA FRANCIGENA GRAN SAN BERNARDO-IVREA 1ª TAPPA  GRAN S.BERNARDO-ECHEVENNOZ",
    "date": "25/08/2025",
    "location": {
      "city": "GRAN SAN BERNARDO",
      "province": "AO"
    },
    "poster": null,
    "source": "FIASP"
  },
  {
    "title": "TREKKING    – 2ª  TAPPA TREKKING FRANCIGENA - ECHEVENNOZ-AOSTA",
    "date": "26/08/2025",
    "location": {
      "city": "ECHEVENNOZ",
      "province": "AO"
    },
    "poster": null,
    "source": "FIASP"
  },
  {
    "title": "TREKKING -  3ª TAPPA TREKKING FRANCIGENA  AOSTA-CHATILLON",
    "date": "27/08/2025",
    "location": {
      "city": "AOSTA",
      "province": "AO"
    },
    "poster": null,
    "source": "FIASP"
  },
  {
    "title": "TREKKING – 4ª TAPPA TREKKING FRANCIGENA - CHATILLON-VERRES",
    "date": "28/08/2025",
    "location": {
      "city": "CHATILLON",
      "province": "AO"
    },
    "poster": null,
    "source": "FIASP"
  },
  {
    "title": "52ª 4 GIORNI INTERNAZIONALI DI FOGLIZZO",
    "date": "28/08/2025",
    "location": {
      "city": "Foglizzo",
      "province": "TO"
    },
    "poster": "https://drive.google.com/uc?export=view&id=1bgrdZJhSYEZSjLGq4Y4H6P9vC6fgPM1a",
    "source": "FIASP"
  },
  {
    "title": "TREKKING – 5ª TAPPA TREKKING FRANCIGENA - VERRES-PONT SAINT MARTIN",
    "date": "29/08/2025",
    "location": {
      "city": "VERRES",
      "province": "AO"
    },
    "poster": null,
    "source": "FIASP"
  },
  {
    "title": "26ª MARCIA PER TUTTE LE ETA'",
    "date": "29/08/2025",
    "location": {
      "city": "Soncino",
      "province": "CR"
    },
    "poster": "https://drive.google.com/uc?export=view&id=1hgWpuawR3Dj1ECcDP8az42VSwzwFS_jD",
    "source": "FIASP"
  },
  {
    "title": "49ª PALIDAN MARCIA IN NOTTURNA",
    "date": "29/08/2025",
    "location": {
      "city": "Palidano di Gonzaga",
      "province": "MN"
    },
    "poster": "https://drive.google.com/uc?export=view&id=1Ch6PobUXWtq7D1g5XNOAF8EayThv3rzi",
    "source": "FIASP"
  },
  {
    "title": "17ª MARCIA DELLO SPIEDINO",
    "date": "29/08/2025",
    "location": {
      "city": "Monticelli d'Ongina [Via Edison]",
      "province": "PC"
    },
    "poster": "https://drive.google.com/uc?export=view&id=1ftNQka2sUYFDUqpbTeMxx5ykxSqRocVD",
    "source": "FIASP"
  },
  {
    "title": "52^ 4 GIORNI INTERNAZIONALI DI FOGLIZZO",
    "date": "29/08/2025",
    "location": {
      "city": "Foglizzo",
      "province": "TO"
    },
    "poster": "https://drive.google.com/uc?export=view&id=1bgrdZJhSYEZSjLGq4Y4H6P9vC6fgPM1a",
    "source": "FIASP"
  },
  {
    "title": "5ª MARCIA SOTTO LE STELLE - 2° MEMORIAL WALTER CANZIAN",
    "date": "29/08/2025",
    "location": {
      "city": "Villaverla [P.le delle Feste Via Giovanni XXIII]",
      "province": "VI"
    },
    "poster": null,
    "source": "FIASP"
  },
  {
    "title": "17ª ENOTTURNA TRA LE MURA DI SOAVE",
    "date": "29/08/2025",
    "location": {
      "city": "Soave [P.za Cavalli]",
      "province": "VR"
    },
    "poster": "https://drive.google.com/uc?export=view&id=1ry3wLnUgSbzk_sLaPxMleZhSEm4duZq_",
    "source": "FIASP"
  },
  {
    "title": "TREKKING – 6ª TAPPA TREKKING FRANCIGENA - PONT SAINT MARTIN - IVREA",
    "date": "30/08/2025",
    "location": {
      "city": "PONT SAINT MARTIN",
      "province": "AO"
    },
    "poster": null,
    "source": "FIASP"
  },
  {
    "title": "SVELTICANTO SUMMER NIGHT",
    "date": "30/08/2025",
    "location": {
      "city": "Carvico [Tensostruttura - Area Festa Patronale]",
      "province": "BG"
    },
    "poster": "https://drive.google.com/uc?export=view&id=1OMXt6_NG7GRvWFCUzLlXvlyq72SnUe0I",
    "source": "FIASP"
  },
  {
    "title": "52^ 4 GIORNI INTERNAZIONALI DI FOGLIZZO",
    "date": "30/08/2025",
    "location": {
      "city": "Foglizzo",
      "province": "TO"
    },
    "poster": "https://drive.google.com/uc?export=view&id=1bgrdZJhSYEZSjLGq4Y4H6P9vC6fgPM1a",
    "source": "FIASP"
  },
  {
    "title": "34ª MARCIA DI S. ANTONIO",
    "date": "31/08/2025",
    "location": {
      "city": "Bolzone",
      "province": "CR"
    },
    "poster": "https://drive.google.com/uc?export=view&id=147S2cIAtkv5I9AGCNYa4bqye1nzr8RWH",
    "source": "FIASP"
  },
  {
    "title": "MARCIA DE LE RAZE",
    "date": "31/08/2025",
    "location": {
      "city": "Staranzano - Stalle Rosse Via De Amicis 10",
      "province": "GO"
    },
    "poster": "https://drive.google.com/uc?export=view&id=1LE6sPEd2rmmQ6YbQR88KtRUneoaFX6d-",
    "source": "FIASP"
  },
  {
    "title": "17ª STRAPAGNANO",
    "date": "31/08/2025",
    "location": {
      "city": "Pagnano di Merate",
      "province": "LC"
    },
    "poster": "https://drive.google.com/uc?export=view&id=1sMCZP0FthANoIg39p4LraA8oAqT4Tdme",
    "source": "FIASP"
  },
  {
    "title": "52ª MARCIA DEL PO \"MEMORIAL UGOLINO MARCHIO' \"",
    "date": "31/08/2025",
    "location": {
      "city": "Borgoforte di Borgovirgilio",
      "province": "MN"
    },
    "poster": "https://drive.google.com/uc?export=view&id=1UxOEo-pCZ04pLKlBwn8h58CoQObQ6Qyb",
    "source": "FIASP"
  },
  {
    "title": "MARCIA DEL VOLONTARIO",
    "date": "31/08/2025",
    "location": {
      "city": "Alseno [Via Turati 23]",
      "province": "PC"
    },
    "poster": "https://drive.google.com/uc?export=view&id=1hvdNRRMCaOV1fvlipdXqKraYz93X8je6",
    "source": "FIASP"
  },
  {
    "title": "4° MARCIA COLOMBARA",
    "date": "31/08/2025",
    "location": {
      "city": "bastia di rovolon",
      "province": "PD"
    },
    "poster": "https://drive.google.com/uc?export=view&id=1FLiMA6rfqMMK7mtYsuL_ZhGnRzRszWyu",
    "source": "FIASP"
  },
  {
    "title": "12° OM DE MER –  TRIATHLON GOLIARDICO",
    "date": "31/08/2025",
    "location": {
      "city": "Montagnana",
      "province": "PD"
    },
    "poster": null,
    "source": "FIASP"
  },
  {
    "title": "6ª MARCIA \"I COLORI DI SAN LEONARDO\"",
    "date": "31/08/2025",
    "location": {
      "city": "San Leonardo Val Cellina-Pro Loco San Leonardo",
      "province": "PN"
    },
    "poster": "https://drive.google.com/uc?export=view&id=1B2C9Mw14mG3JYgdxHvv1QJGAeDFExP_P",
    "source": "FIASP"
  },
  {
    "title": "52ª 4 GIORNI INTERNAZIONALI DI FOGLIZZO",
    "date": "31/08/2025",
    "location": {
      "city": "Foglizzo",
      "province": "TO"
    },
    "poster": "https://drive.google.com/uc?export=view&id=1bgrdZJhSYEZSjLGq4Y4H6P9vC6fgPM1a",
    "source": "FIASP"
  },
  {
    "title": "12^ HAITI FUN RUN",
    "date": "31/08/2025",
    "location": {
      "city": "PASSONS",
      "province": "UD"
    },
    "poster": "https://drive.google.com/uc?export=view&id=16X7d2STQ9IBB0LM_BQAroQxtzIzb3kFQ",
    "source": "FIASP"
  },
  {
    "title": "9ª  QUATTAR PASS PAR GAVIRA' RUN FOR ALZHEIMER",
    "date": "31/08/2025",
    "location": {
      "city": "Gavirate",
      "province": "VA"
    },
    "poster": "https://drive.google.com/uc?export=view&id=11NtCFjA4Fvr0t6ggDk_v6JyHsicdV1km",
    "source": "FIASP"
  },
  {
    "title": "9ª MARCIA LA RONDINE - MEMORIAL ANTONIO CESARI",
    "date": "31/08/2025",
    "location": {
      "city": "Montecchio Pracalcino [Centro Palazzon Via Murazzo 10] ]",
      "province": "VI"
    },
    "poster": "https://drive.google.com/uc?export=view&id=1NsBFuWY-xWmNzNoOrW5FEpZIMKEW_O0l",
    "source": "FIASP"
  },
  {
    "title": "10° FARINATE RUNNING",
    "date": "04/09/2025",
    "location": {
      "city": "FARINATE FRAZ. CAPRALBA",
      "province": "CR"
    },
    "poster": "https://drive.google.com/uc?export=view&id=1ATmfJdXGQu1lxxRDivdrZQDkWl8sv0w4",
    "source": "FIASP"
  },
  {
    "title": "28ª MARCIA DELL'ORATORIO",
    "date": "05/09/2025",
    "location": {
      "city": "Romanengo",
      "province": "CR"
    },
    "poster": "https://drive.google.com/uc?export=view&id=19xw3KshUHktSU4A4srZNA7YFWmYMS_Lr",
    "source": "FIASP"
  },
  {
    "title": "35ª CURUM PAR LA CHISOLA",
    "date": "05/09/2025",
    "location": {
      "city": "Borgonovo Val Tidone [P.zza Garibaldi, 18]",
      "province": "PC"
    },
    "poster": "https://drive.google.com/uc?export=view&id=1T3AfK94B_HGbETRnvMHl7NBKGquSxLrQ",
    "source": "FIASP"
  },
  {
    "title": "12ª RUN & WALK BY NIGHT",
    "date": "05/09/2025",
    "location": {
      "city": "Terni",
      "province": "TR"
    },
    "poster": "https://drive.google.com/uc?export=view&id=1ctEge-rcprtjci-B8X6UESuTtXEGaiFM",
    "source": "FIASP"
  },
  {
    "title": "7ª LUCCIOLATA DI VILLA CALDOGNO",
    "date": "05/09/2025",
    "location": {
      "city": "Caldogno [Villa Caldogno]",
      "province": "VI"
    },
    "poster": null,
    "source": "FIASP"
  },
  {
    "title": "CAMMINATA TRA BOSCO E LAGO",
    "date": "06/09/2025",
    "location": {
      "city": "Monguzzo",
      "province": "CO"
    },
    "poster": "https://drive.google.com/uc?export=view&id=15eZYiHrSiZY1I1XoEBqg7Awj2DbP_M8m",
    "source": "FIASP"
  },
  {
    "title": "CORSA PER UNA STELLA",
    "date": "06/09/2025",
    "location": {
      "city": "GEMONA DEL FRIULI LOC. MANIAGLIA",
      "province": "UD"
    },
    "poster": "https://drive.google.com/uc?export=view&id=1sbmagIIRwj-0t2WJciVDiNBnBpWPl49U",
    "source": "FIASP"
  },
  {
    "title": "9° PELLEGRINAGGIO",
    "date": "06/09/2025",
    "location": {
      "city": "Vicenza / Padova",
      "province": "VI"
    },
    "poster": null,
    "source": "FIASP"
  },
  {
    "title": "41ª U GIR PER BARIA'",
    "date": "07/09/2025",
    "location": {
      "city": "Fornovo San Giovanni [Arredamenti Anna Giupponi]",
      "province": "BG"
    },
    "poster": "https://drive.google.com/uc?export=view&id=1v86GyIinj55iQgAWAmc8deI7nQqFQAAP",
    "source": "FIASP"
  },
  {
    "title": "40ª MARCIA DEL DONATORE",
    "date": "07/09/2025",
    "location": {
      "city": "Carvico [Area Festa, Piazzale della Chiesa]",
      "province": "BG"
    },
    "poster": "https://drive.google.com/uc?export=view&id=1f-c6II67Xhf3xw81MIGRKdaOX7_YyA-m",
    "source": "FIASP"
  },
  {
    "title": "46ª CAMMINATA DELLA SPERANZA",
    "date": "07/09/2025",
    "location": {
      "city": "Cabiate",
      "province": "CO"
    },
    "poster": "https://drive.google.com/uc?export=view&id=1S-5jl2QvfiYm_uSNtPsILPh0zYC68m4v",
    "source": "FIASP"
  },
  {
    "title": "37° GIROVERDE",
    "date": "07/09/2025",
    "location": {
      "city": "Camisano",
      "province": "CR"
    },
    "poster": "https://drive.google.com/uc?export=view&id=16AYf1pTBRULEqiPfiwWaS117IvQsZQBA",
    "source": "FIASP"
  },
  {
    "title": "CAMMINANDO NEL PREVAL",
    "date": "07/09/2025",
    "location": {
      "city": "MOSSA - Centro Civico Comunale",
      "province": "GO"
    },
    "poster": "https://drive.google.com/uc?export=view&id=11EtQv6ljRsFoK2fb9vy2BbgucDZ0UE8s",
    "source": "FIASP"
  },
  {
    "title": "20ª EDIZIONE TRA ROGGE E PIOPPI",
    "date": "07/09/2025",
    "location": {
      "city": "Borghetto Lodigiano",
      "province": "LO"
    },
    "poster": "https://drive.google.com/uc?export=view&id=1DV0vw4kS8FVCZAlrvdSGWsGpsVFvSa6F",
    "source": "FIASP"
  },
  {
    "title": "21ª CORRIVIADANA",
    "date": "07/09/2025",
    "location": {
      "city": "Viadana (c/o Stadio Bortolani, via al Ponte)",
      "province": "MN"
    },
    "poster": null,
    "source": "FIASP"
  },
  {
    "title": "32ª CAMMINATA DELLE TRE VALLI",
    "date": "07/09/2025",
    "location": {
      "city": "Carpaneto Piacentino [Palazzetto Sport - Via S.Lazzaro]",
      "province": "PC"
    },
    "poster": "https://drive.google.com/uc?export=view&id=1GIej_vpkSk0sUXfKupb51DOiomjPqDvu",
    "source": "FIASP"
  },
  {
    "title": "3ª MARCIA DEL KIS",
    "date": "07/09/2025",
    "location": {
      "city": "Castelnovo del Friuli",
      "province": "PN"
    },
    "poster": "https://drive.google.com/uc?export=view&id=1javbE9K9MV9JYDP9Mi6WBX5s59gAbF5H",
    "source": "FIASP"
  },
  {
    "title": "10ª CAMMINIAMO UN PO INSIEME",
    "date": "07/09/2025",
    "location": {
      "city": "Mezzani",
      "province": "PR"
    },
    "poster": null,
    "source": "FIASP"
  },
  {
    "title": "DI CORSA NEL PARCO NEL PARCO",
    "date": "07/09/2025",
    "location": {
      "city": "Borgo San Siro (PV)",
      "province": "PV"
    },
    "poster": "https://drive.google.com/uc?export=view&id=1g96UUPlM-CjOxF3NLi_EewQYNYxNfR09",
    "source": "FIASP"
  },
  {
    "title": "32ª CORRERE NELLA CAMPAGNA",
    "date": "07/09/2025",
    "location": {
      "city": "Faugnacco di Martignacco",
      "province": "UD"
    },
    "poster": "https://drive.google.com/uc?export=view&id=1o8udxIi07_qbTjpiL4kZ_1ARErgbX3G6",
    "source": "FIASP"
  },
  {
    "title": "16ª  STRAMORAZZONE",
    "date": "07/09/2025",
    "location": {
      "city": "Morazzone",
      "province": "VA"
    },
    "poster": "https://drive.google.com/uc?export=view&id=11fkxN99zqHfPMwfQ8hNFXA2pLn2uE0hy",
    "source": "FIASP"
  },
  {
    "title": "14ª MARCIA DI MARAGNOLE MEMORIAL DON CAMILLO FARESIN",
    "date": "07/09/2025",
    "location": {
      "city": "Maragnole [Campo Sportivo Parrocchiale]",
      "province": "VI"
    },
    "poster": "https://drive.google.com/uc?export=view&id=12JcDWS-vymV4yFhtiXfb4D5JgGnrqi5W",
    "source": "FIASP"
  },
  {
    "title": "17ª CORRI ALLE TORRI (SALIZZOLE VR)",
    "date": "07/09/2025",
    "location": {
      "city": "Salizzole P.za Castello",
      "province": "VR"
    },
    "poster": "https://drive.google.com/uc?export=view&id=10l1t9lce5bPIJOGDFP25d-_mGp0iW3Wh",
    "source": "FIASP"
  },
  {
    "title": "6ª MARCIA LUDICO MOTORIA A PERAROLO DI VIGONZA",
    "date": "09/09/2025",
    "location": {
      "city": "Perarolo di Vigonza",
      "province": "PD"
    },
    "poster": null,
    "source": "FIASP"
  },
  {
    "title": "\"RUN FOR BEAUTY\" IL TRUCCO C'E' E SI CHIAMA PREVENZIONE",
    "date": "12/09/2025",
    "location": {
      "city": "CREMA zona Pierina Via dell'industria, 21",
      "province": "CR"
    },
    "poster": "https://drive.google.com/uc?export=view&id=17J96HLsfOZRayyafxoflj7d8b01CcNTm",
    "source": "FIASP"
  },
  {
    "title": "14ª PALIO  CITTÀ DI CODOGNO",
    "date": "12/09/2025",
    "location": {
      "city": "Codogno Piazza XX Settembre",
      "province": "LO"
    },
    "poster": null,
    "source": "FIASP"
  },
  {
    "title": "A SPASSO AL CHIARO DI LUNA",
    "date": "12/09/2025",
    "location": {
      "city": "Creazzo [Impianto Polisportivo Viale Torino]",
      "province": "VI"
    },
    "poster": null,
    "source": "FIASP"
  },
  {
    "title": "6ª CORRI IN ROSA",
    "date": "13/09/2025",
    "location": {
      "city": "Busnago - Centro Sportivo Via Piave",
      "province": "MB"
    },
    "poster": "https://drive.google.com/uc?export=view&id=1yMPjoybXV0jJyQXiUofL8VMga7dPiIHo",
    "source": "FIASP"
  },
  {
    "title": "2° RADUNO NAZIONALE DEI COMITATI FIASP",
    "date": "13/09/2025",
    "location": {
      "city": "Piazzale del Santuario delle Grazie -Comune di Curtatone",
      "province": "MN"
    },
    "poster": null,
    "source": "FIASP"
  },
  {
    "title": "8ª EDIZIONE RUN WITH ZHERMACK",
    "date": "13/09/2025",
    "location": {
      "city": "BADIA POLESINE VIA BOVAZECCHINO",
      "province": "RO"
    },
    "poster": "https://drive.google.com/uc?export=view&id=1XftYXHGEspF0EF1pLkrR7dEZ6D_apY5a",
    "source": "FIASP"
  },
  {
    "title": "1ª AL CHIARO DI LUNA TRA LE RISORGIVE",
    "date": "13/09/2025",
    "location": {
      "city": "Bressanvido Piazza del Cittadino",
      "province": "VI"
    },
    "poster": "https://drive.google.com/uc?export=view&id=1lzhjzF8pq4VgfMglE6Hb9qMeFStp8lIo",
    "source": "FIASP"
  },
  {
    "title": "49ª  MARCIA DEL DONATORE",
    "date": "14/09/2025",
    "location": {
      "city": "Brembate [Arena Civica, Via San Vittore]",
      "province": "BG"
    },
    "poster": "https://drive.google.com/uc?export=view&id=1BULYS57jGA808WIyqqrHxXeBhckW1t6u",
    "source": "FIASP"
  },
  {
    "title": "50° FESTIVAL NAZIONALE DEL PODISTA",
    "date": "14/09/2025",
    "location": {
      "city": "Crema",
      "province": "CR"
    },
    "poster": "https://drive.google.com/uc?export=view&id=1unFhO1pUA799zUoFpPxDoMlGNcN3loWG",
    "source": "FIASP"
  },
  {
    "title": "MARCIA \"SOLIDARIETA' E' VITA\" -",
    "date": "14/09/2025",
    "location": {
      "city": "MONFALCONE",
      "province": "GO"
    },
    "poster": "https://drive.google.com/uc?export=view&id=1iygDQ30Ir9QHVDS_USCWpiLsJTroLhmL",
    "source": "FIASP"
  },
  {
    "title": "3ª STRAPELLICANO",
    "date": "14/09/2025",
    "location": {
      "city": "Osnago",
      "province": "LC"
    },
    "poster": "https://drive.google.com/uc?export=view&id=12s-9z0I9ZxLp6mqn6TbJd7vaRJxw3RVz",
    "source": "FIASP"
  },
  {
    "title": "7ª MARCIA  I GÖSI  E  I  SO  AMISI",
    "date": "14/09/2025",
    "location": {
      "city": "Salerano sul Lambro",
      "province": "LO"
    },
    "poster": "https://drive.google.com/uc?export=view&id=1R9yDW9ksfDYhujY7ug9JXBJUZirH0xU2",
    "source": "FIASP"
  },
  {
    "title": "MEZZAGORUN 2025",
    "date": "14/09/2025",
    "location": {
      "city": "Mezzago",
      "province": "MB"
    },
    "poster": "https://drive.google.com/uc?export=view&id=12kawLOPRQCuM7bX5Vmk0c84XJ54suhGB",
    "source": "FIASP"
  },
  {
    "title": "17ª CAMMINATA PER LE FRAZIONI DEL COMUNE DI SAN GIORGIO BIGARELLO",
    "date": "14/09/2025",
    "location": {
      "city": "presso la Foresta della Carpaneta a Gazzo Comune di San Giorgio Bigarello",
      "province": "MN"
    },
    "poster": null,
    "source": "FIASP"
  },
  {
    "title": "38ª MARCIA DEI TRE ARGINI",
    "date": "14/09/2025",
    "location": {
      "city": "Fossadello di Caorso [Sede ANSPI - Fossadello Centro]",
      "province": "PC"
    },
    "poster": null,
    "source": "FIASP"
  },
  {
    "title": "19ª MARCIA DEL BOSCAT",
    "date": "14/09/2025",
    "location": {
      "city": "Taiedo di Chions",
      "province": "PN"
    },
    "poster": null,
    "source": "FIASP"
  },
  {
    "title": "LA 5000 DELLA GARLASCHESE",
    "date": "14/09/2025",
    "location": {
      "city": "TROMELLO",
      "province": "PV"
    },
    "poster": "https://drive.google.com/uc?export=view&id=1MDFsALOXwaFJPnmG7LuAQwXy3tczalKy",
    "source": "FIASP"
  },
  {
    "title": "10ª MARCIA INTERNAZIONALE   \"TRA LE COLLINE DEL PROSCIUTTO\"",
    "date": "14/09/2025",
    "location": {
      "city": "San Daniele del Friuli",
      "province": "UD"
    },
    "poster": "https://drive.google.com/uc?export=view&id=1wSPbMwDfMjkxfn2DFq0VklFzfrkbnHgV",
    "source": "FIASP"
  },
  {
    "title": "22^ QUATTAR PASS IN PINETA",
    "date": "14/09/2025",
    "location": {
      "city": "Abbiate Guazzone (Tradate)",
      "province": "VA"
    },
    "poster": "https://drive.google.com/uc?export=view&id=1RonAYkMJfHXABajARxL41TsORXWrXXpe",
    "source": "FIASP"
  },
  {
    "title": "5ª MARCIA PER LE TERRE DEL TIEPOLO",
    "date": "14/09/2025",
    "location": {
      "city": "Zianigo di Mirano",
      "province": "VE"
    },
    "poster": "https://drive.google.com/uc?export=view&id=1FtSIDChMJcAJUF80kXRqtYlpQue8DxLK",
    "source": "FIASP"
  },
  {
    "title": "PASSI BLU",
    "date": "14/09/2025",
    "location": {
      "city": "Vicenza - loc. Maddalene Campo sportivo",
      "province": "VI"
    },
    "poster": null,
    "source": "FIASP"
  },
  {
    "title": "50ª MARCIA BIANCOVERDE",
    "date": "14/09/2025",
    "location": {
      "city": "S.Croce di Bassano [Impianti Sportivi Via Ca' Dolfin 60]",
      "province": "VI"
    },
    "poster": null,
    "source": "FIASP"
  },
  {
    "title": "48ª MARCIA VALLI GRANDI VERONESI",
    "date": "14/09/2025",
    "location": {
      "city": "Bovolone P.za A. Moro - piazzale della fiera",
      "province": "VR"
    },
    "poster": "https://drive.google.com/uc?export=view&id=13Aj50cvSnT1Iu7wPUlWqRuGDOgWUL52P",
    "source": "FIASP"
  },
  {
    "title": "7ª EDZ. I PERCORSI DELL'EST! EST!! EST!!!",
    "date": "14/09/2025",
    "location": {
      "city": "Montefiascone",
      "province": "VT"
    },
    "poster": "https://drive.google.com/uc?export=view&id=1UxGoLNGahBUHi_U6-mBTNFbGOZ6TSPCJ",
    "source": "FIASP"
  },
  {
    "title": "7ª SENTRALE DE NOTE",
    "date": "19/09/2025",
    "location": {
      "city": "Centrale di Zugliano [Piazza Centrale Via Riva]",
      "province": "VI"
    },
    "poster": null,
    "source": "FIASP"
  },
  {
    "title": "14° MEMORIAL EUGENIO MERCORIO",
    "date": "20/09/2025",
    "location": {
      "city": "Foppolo [Piazzale Ristorante K]",
      "province": "BG"
    },
    "poster": "https://drive.google.com/uc?export=view&id=1yx2rMEaokliXVH-Lcq0H2lTBqsgGS88a",
    "source": "FIASP"
  },
  {
    "title": "14ª PEDALATA MEMORIAL EUGENIO MERCORIO",
    "date": "20/09/2025",
    "location": {
      "city": "Branzi [Località Gardata]",
      "province": "BG"
    },
    "poster": "https://drive.google.com/uc?export=view&id=1yx2rMEaokliXVH-Lcq0H2lTBqsgGS88a",
    "source": "FIASP"
  },
  {
    "title": "CAMMINATA PER LA VITA \"DOMENICO  LAMURA E ANTONIO TAVOLA\"",
    "date": "20/09/2025",
    "location": {
      "city": "Rogeno",
      "province": "LC"
    },
    "poster": "https://drive.google.com/uc?export=view&id=1lCu_SUs5DVH90UBJ0g9aPg2KH8zkZYfL",
    "source": "FIASP"
  },
  {
    "title": "2ª MARCIA DEL DONATORE",
    "date": "20/09/2025",
    "location": {
      "city": "Valvasone",
      "province": "PN"
    },
    "poster": "https://drive.google.com/uc?export=view&id=1A2hKZfI5FhdOCOuUw0CtOju_3Z9Oupc7",
    "source": "FIASP"
  },
  {
    "title": "1° WALK FOR LIFE",
    "date": "20/09/2025",
    "location": {
      "city": "Gonars",
      "province": "UD"
    },
    "poster": "https://drive.google.com/uc?export=view&id=1aXXYCrgACYTOT-MeDyomZr-SrZyPmWhn",
    "source": "FIASP"
  },
  {
    "title": "STRAELA",
    "date": "21/09/2025",
    "location": {
      "city": "Villa d'Adda [Campo Sportivo Via G. Donizetti]",
      "province": "BG"
    },
    "poster": "https://drive.google.com/uc?export=view&id=1uDanYCjU-Ui2WCPsMSH3BU7lfEHGjRvv",
    "source": "FIASP"
  },
  {
    "title": "50ª MURSELADA",
    "date": "21/09/2025",
    "location": {
      "city": "Pianengo",
      "province": "CR"
    },
    "poster": "https://drive.google.com/uc?export=view&id=1n0rFHTcCdwIjTYxjTqx6sVLkScyVaG8o",
    "source": "FIASP"
  },
  {
    "title": "11ª   CAMMINANDO NEL COLLIO",
    "date": "21/09/2025",
    "location": {
      "city": "CORMONS",
      "province": "GOR"
    },
    "poster": "https://drive.google.com/uc?export=view&id=1IePwUA7qdKARUhG_1Fd6kTX9wrLZUX9a",
    "source": "FIASP"
  },
  {
    "title": "44ª SGAMBATA VERDERESE",
    "date": "21/09/2025",
    "location": {
      "city": "Verderio",
      "province": "LC"
    },
    "poster": "https://drive.google.com/uc?export=view&id=103-kHRe9kmx9Lh5IJyRPHHpwqF7ZyP0h",
    "source": "FIASP"
  },
  {
    "title": "45ª CAMINADA DE SCUGNAI",
    "date": "21/09/2025",
    "location": {
      "city": "Secugnago",
      "province": "LO"
    },
    "poster": null,
    "source": "FIASP"
  },
  {
    "title": "41° TROFEO DON CARLO CARRETTONI",
    "date": "21/09/2025",
    "location": {
      "city": "Copreno di Lentate sul Seveso - Oratorio in Via Montenero",
      "province": "MB"
    },
    "poster": "https://drive.google.com/uc?export=view&id=1EiFV2ZrV2U0ESxk6EhAB5aXt21FfX-8R",
    "source": "FIASP"
  },
  {
    "title": "49ª  MARCIA ACLI PODISTICA ORATORIO SAN GIULIANO",
    "date": "21/09/2025",
    "location": {
      "city": "Cologno Monzese",
      "province": "MI"
    },
    "poster": "https://drive.google.com/uc?export=view&id=15rHaXIdz6qgsjdJR0uvwC-lykpDSDK5r",
    "source": "FIASP"
  },
  {
    "title": "INSIEME PER LA CASA DI IRIS",
    "date": "21/09/2025",
    "location": {
      "city": "PIACENZA [VIA BUBBA 100]",
      "province": "PC"
    },
    "poster": "https://drive.google.com/uc?export=view&id=15uyeGeRwfYNI-TE8GIQ0p7rTA6iBaBO7",
    "source": "FIASP"
  },
  {
    "title": "51ª MARCIA DEI FUNGHI",
    "date": "21/09/2025",
    "location": {
      "city": "Budoia",
      "province": "PN"
    },
    "poster": "https://drive.google.com/uc?export=view&id=19NsLonXuWihSpQJl78XyEzxhHfXgMgpn",
    "source": "FIASP"
  },
  {
    "title": "10° CORRI A TORRILE",
    "date": "21/09/2025",
    "location": {
      "city": "TORRILE (CIRCOLO IL PORTICO)",
      "province": "PR"
    },
    "poster": null,
    "source": "FIASP"
  },
  {
    "title": "15ª IN SLA' ROTA AD PO",
    "date": "21/09/2025",
    "location": {
      "city": "Occhiobello Santa Maria Maddalena",
      "province": "RO"
    },
    "poster": null,
    "source": "FIASP"
  },
  {
    "title": "STRAUDINE",
    "date": "21/09/2025",
    "location": {
      "city": "UDINE",
      "province": "UD"
    },
    "poster": null,
    "source": "FIASP"
  },
  {
    "title": "NONA EDIZIONE MEMORIAL ZANELLA",
    "date": "21/09/2025",
    "location": {
      "city": "Varese (San Fermo)",
      "province": "VA"
    },
    "poster": null,
    "source": "FIASP"
  },
  {
    "title": "MARCIA DI CINTO",
    "date": "21/09/2025",
    "location": {
      "city": "Cinto Caomaggiore",
      "province": "VE"
    },
    "poster": "https://drive.google.com/uc?export=view&id=15JMz3iB7VfsNAvJ-Yl2ds9s05qwNcPMz",
    "source": "FIASP"
  },
  {
    "title": "15ª MARCIA VILLA CAPPELLO  - 30ª EDIZIONE",
    "date": "21/09/2025",
    "location": {
      "city": "Cartigliano [Parco di Villa Morosini Cappello]",
      "province": "VI"
    },
    "poster": "https://drive.google.com/uc?export=view&id=16qyCP50HWq6eFucMqqnj_PU95-J65V2g",
    "source": "FIASP"
  },
  {
    "title": "8ª MARCIA DEI CASTELLARI",
    "date": "21/09/2025",
    "location": {
      "city": "Isola Vicentina [Palazzetto dello Sport Via Vallorcola]",
      "province": "VI"
    },
    "poster": null,
    "source": "FIASP"
  },
  {
    "title": "CAMMINA OSSERVA SCOPRI. 4 PASSI NEL NOSTRO TERRITORIO",
    "date": "27/09/2025",
    "location": {
      "city": "SERGNANO - PLESSO SCOLASTICO",
      "province": "CR"
    },
    "poster": "https://drive.google.com/uc?export=view&id=11i_WujyKixrvGy_LPYGn5KcTMdmt8cKc",
    "source": "FIASP"
  },
  {
    "title": "3ª NIBIONNO WALK",
    "date": "27/09/2025",
    "location": {
      "city": "Nibionno",
      "province": "LC"
    },
    "poster": null,
    "source": "FIASP"
  },
  {
    "title": "22° TROFEO ASSOCIAZIONE AS.SO.FA.",
    "date": "27/09/2025",
    "location": {
      "city": "Verano di Podenzano [Centro Accoglienza AS.SO.FA]",
      "province": "PC"
    },
    "poster": null,
    "source": "FIASP"
  },
  {
    "title": "51ª MARCIA IN CIMA AL CAMPANILE",
    "date": "27/09/2025",
    "location": {
      "city": "Porcia",
      "province": "PN"
    },
    "poster": "https://drive.google.com/uc?export=view&id=1z8B3oDGIoOCPx-ppABgseSHKRn4jJ9Db",
    "source": "FIASP"
  },
  {
    "title": "MARCIA PER RITROVARE IL SORRISO",
    "date": "27/09/2025",
    "location": {
      "city": "Altavilla Vicentina (via Cavour, 100)",
      "province": "VI"
    },
    "poster": null,
    "source": "FIASP"
  },
  {
    "title": "4° CAMMINATA IN ROSA ALBARETANA",
    "date": "27/09/2025",
    "location": {
      "city": "Abaredo d'Adige",
      "province": "VR"
    },
    "poster": "https://drive.google.com/uc?export=view&id=1xA3pqgzw1tIt9HZYB5fxLf975dByKnO9",
    "source": "FIASP"
  },
  {
    "title": "37ª SGAMBADA D'AUTUNNO",
    "date": "28/09/2025",
    "location": {
      "city": "Curnasco [Oratorio, Piazza Don Personeni]",
      "province": "BG"
    },
    "poster": "https://drive.google.com/uc?export=view&id=1OxHYW3_d6PxhwwDb1GLlaOFSwjhZ-dkq",
    "source": "FIASP"
  },
  {
    "title": "18ª MARCIA DELLA VALLE DELL'OGLIO",
    "date": "28/09/2025",
    "location": {
      "city": "Soncino [ex Colonia Fluviale]",
      "province": "CR"
    },
    "poster": "https://drive.google.com/uc?export=view&id=1OObBbNlUVkJjLBbTR6s0VA-2qrhKPRwV",
    "source": "FIASP"
  },
  {
    "title": "22ª MARCIA DEL DONATORE",
    "date": "28/09/2025",
    "location": {
      "city": "Mariano del Friuli",
      "province": "GO"
    },
    "poster": "https://drive.google.com/uc?export=view&id=1QwAqOBNLaiF9aMw2i2_e_7Nm9HFrlnEd",
    "source": "FIASP"
  },
  {
    "title": "21ª QUATER PASS INTURNU AL S.MARTIN",
    "date": "28/09/2025",
    "location": {
      "city": "Garbagnate Monastero",
      "province": "LC"
    },
    "poster": "https://drive.google.com/uc?export=view&id=1H7cZI8NBVmPbGmz5MTAWJzH0QtTZATwr",
    "source": "FIASP"
  },
  {
    "title": "15ª LODI CHE CORRE",
    "date": "28/09/2025",
    "location": {
      "city": "Lodi Viale Piacenza, Oratorio San Bernardo]",
      "province": "LO"
    },
    "poster": "https://drive.google.com/uc?export=view&id=1XgTBdW1ZP4G2WYa4TlEZgSm4eGLQ2v41",
    "source": "FIASP"
  },
  {
    "title": "52ª CAMMINATA LUNGO IL PO",
    "date": "28/09/2025",
    "location": {
      "city": "Fogarole di Monticelli [P.za della Chiesa]",
      "province": "PC"
    },
    "poster": null,
    "source": "FIASP"
  },
  {
    "title": "7ª CAMINA CORI E CIACOEA",
    "date": "28/09/2025",
    "location": {
      "city": "Caselle di Selvazzano",
      "province": "PD"
    },
    "poster": null,
    "source": "FIASP"
  },
  {
    "title": "20ª MARCIA DELLA PENNA",
    "date": "28/09/2025",
    "location": {
      "city": "Polcenigo-Sede Alpini Piazza di Coltura",
      "province": "PN"
    },
    "poster": "https://drive.google.com/uc?export=view&id=1MkP6dNY8AfVl-tJyrxXChuK7RnLKzCHQ",
    "source": "FIASP"
  },
  {
    "title": "CAMMINATA ALTA VAL RECCHIO",
    "date": "28/09/2025",
    "location": {
      "city": "VARANO MARCHESI",
      "province": "PR"
    },
    "poster": null,
    "source": "FIASP"
  },
  {
    "title": "CAMMINATA DEL DONO",
    "date": "28/09/2025",
    "location": {
      "city": "TOLMEZZO",
      "province": "UD"
    },
    "poster": null,
    "source": "FIASP"
  },
  {
    "title": "3^ MARCIA DELLE 4 STAGIONI",
    "date": "28/09/2025",
    "location": {
      "city": "CERGNEU",
      "province": "UD"
    },
    "poster": "https://drive.google.com/uc?export=view&id=1bUJHTVcM1CviCtviLdcfLwpBZYe8_SpI",
    "source": "FIASP"
  },
  {
    "title": "27ª CAMMINATA DEL CARDINALE",
    "date": "28/09/2025",
    "location": {
      "city": "Castiglione Olona",
      "province": "VA"
    },
    "poster": null,
    "source": "FIASP"
  },
  {
    "title": "22ª MARCIA PER I BAMBINI DI STRADA",
    "date": "28/09/2025",
    "location": {
      "city": "Valle S.Floriano di Marostica [Impianti Sportivi Via Stroppari]",
      "province": "VI"
    },
    "poster": null,
    "source": "FIASP"
  },
  {
    "title": "40ª MARCIA TRA LE VISELE DEL DURELO",
    "date": "28/09/2025",
    "location": {
      "city": "Chiampo [P.za Zanella]",
      "province": "VI"
    },
    "poster": "https://drive.google.com/uc?export=view&id=11p2sQp67PS8UQ0odLZo-Gzy7hZbsZB1x",
    "source": "FIASP"
  },
  {
    "title": "16ª SU E ZO PAR LA ROSTA",
    "date": "28/09/2025",
    "location": {
      "city": "Castagnaro Centro Servizi in via Stazione",
      "province": "VR"
    },
    "poster": "https://drive.google.com/uc?export=view&id=1RXOqq5SmNGnYOluOzFjegjiAgeyZroVw",
    "source": "FIASP"
  },
  {
    "title": "18ª MARCIA DELLE PECORE",
    "date": "29/09/2025",
    "location": {
      "city": "Melzo - Centro Sportivo via Buozzi 3",
      "province": "MI"
    },
    "poster": "https://drive.google.com/uc?export=view&id=1tbN6KsKIMndjUvNJkGPubdTSpiiZ-hPD",
    "source": "FIASP"
  },
  {
    "title": "26ª CAMMINANDO CON BAKHITA",
    "date": "04/10/2025",
    "location": {
      "city": "Schio [P.le Divisione Acqui]- arr. Duomo di San Pietro",
      "province": "VI"
    },
    "poster": null,
    "source": "FIASP"
  },
  {
    "title": "51ª SGAMBADA DE LÒNGUEL",
    "date": "05/10/2025",
    "location": {
      "city": "Bergamo [Oratorio di Longuelo]",
      "province": "BG"
    },
    "poster": null,
    "source": "FIASP"
  },
  {
    "title": "CAMMINIAMO PER INCONTRARE I POPOLI",
    "date": "05/10/2025",
    "location": {
      "city": "Lurago d'Erba",
      "province": "CO"
    },
    "poster": "https://drive.google.com/uc?export=view&id=12dLsLnn9weq3dv9mZcAoDHCCsSHKz9vy",
    "source": "FIASP"
  },
  {
    "title": "14° GIRO DELLA BATTAGLIA",
    "date": "05/10/2025",
    "location": {
      "city": "Ripalta Arpina",
      "province": "CR"
    },
    "poster": null,
    "source": "FIASP"
  },
  {
    "title": "15° TROFEO CASTELLOTTI GIUSEPPE E ZANABONI MARIANO",
    "date": "05/10/2025",
    "location": {
      "city": "Senna Lodigiana",
      "province": "LO"
    },
    "poster": null,
    "source": "FIASP"
  },
  {
    "title": "FAMETTA RUN",
    "date": "05/10/2025",
    "location": {
      "city": "Garbagnate Milanese - Via Fametta 50",
      "province": "MB"
    },
    "poster": null,
    "source": "FIASP"
  },
  {
    "title": "8ª LA LENTISSIMA",
    "date": "05/10/2025",
    "location": {
      "city": "Inzago",
      "province": "MI"
    },
    "poster": null,
    "source": "FIASP"
  },
  {
    "title": "33ª CAMMINATA DELLA QUERCIA",
    "date": "05/10/2025",
    "location": {
      "city": "Suzzara",
      "province": "MN"
    },
    "poster": "https://drive.google.com/uc?export=view&id=1JiSm-nc0hle315O9yb4gIs6z33IhVw5t",
    "source": "FIASP"
  },
  {
    "title": "7ª CAMMINATA \"AL GIR AD LI CASA'SI\"",
    "date": "05/10/2025",
    "location": {
      "city": "Casatico di Marcaria Via Nuova,7 Bis",
      "province": "MN"
    },
    "poster": null,
    "source": "FIASP"
  },
  {
    "title": "24ª MARCIA DELL'ALPINO IN MEMORIA DI GIUSEPPE BACCHI",
    "date": "05/10/2025",
    "location": {
      "city": "Vigolzone [Baita Alpini, Via Coppi 14]",
      "province": "PC"
    },
    "poster": "https://drive.google.com/uc?export=view&id=1PgLHNkGGK749--hvnKKiMuwFX0cwA22D",
    "source": "FIASP"
  },
  {
    "title": "12ª CRETROI RUN",
    "date": "05/10/2025",
    "location": {
      "city": "Se quals",
      "province": "PN"
    },
    "poster": null,
    "source": "FIASP"
  },
  {
    "title": "47ª CAMMINATA GOLESANA",
    "date": "05/10/2025",
    "location": {
      "city": "Baganziola",
      "province": "PR"
    },
    "poster": null,
    "source": "FIASP"
  },
  {
    "title": "3ª RESANA IN ROSA",
    "date": "05/10/2025",
    "location": {
      "city": "RESANA",
      "province": "TV"
    },
    "poster": null,
    "source": "FIASP"
  },
  {
    "title": "36ª SU E ZO PAE RIVE DE MONTEBEUNA",
    "date": "05/10/2025",
    "location": {
      "city": "MONTEBELLUNA",
      "province": "TV"
    },
    "poster": null,
    "source": "FIASP"
  },
  {
    "title": "18ª MARCIA NEL PARCO DEL TORRE",
    "date": "05/10/2025",
    "location": {
      "city": "Tapogliano",
      "province": "UD"
    },
    "poster": null,
    "source": "FIASP"
  },
  {
    "title": "7^ CAMMINATA CON I CORSALUS",
    "date": "05/10/2025",
    "location": {
      "city": "Gerenzano",
      "province": "VA"
    },
    "poster": "https://drive.google.com/uc?export=view&id=1h09d-VhosQEXQqQQPd0R34op2IWc9Ln7",
    "source": "FIASP"
  },
  {
    "title": "40ª MARCIA VERDIANA",
    "date": "05/10/2025",
    "location": {
      "city": "Zané Impianti Sportivi Viale dello Sport",
      "province": "VI"
    },
    "poster": null,
    "source": "FIASP"
  },
  {
    "title": "49ª PASSEGGIAMO TRA CASTAGNI E OLIVI - 13° MEMORIAL LINO SBRISSA",
    "date": "05/10/2025",
    "location": {
      "city": "Mussolente [Parco della Vittoria Via della Vittoria 28]",
      "province": "VI"
    },
    "poster": null,
    "source": "FIASP"
  },
  {
    "title": "19ª CORRI A DONARE",
    "date": "05/10/2025",
    "location": {
      "city": "SANGUINETTO",
      "province": "VR"
    },
    "poster": null,
    "source": "FIASP"
  },
  {
    "title": "13ª MARCIA PER LA VITA IN RICORDO DI MICHELE SIGNAROLDI",
    "date": "11/10/2025",
    "location": {
      "city": "Ponte Dell'Olio [Centro Sportivo Cementirossi - Via A. Boggiani]",
      "province": "PC"
    },
    "poster": null,
    "source": "FIASP"
  },
  {
    "title": "CLAUTRAIL",
    "date": "11/10/2025",
    "location": {
      "city": "Claut",
      "province": "PN"
    },
    "poster": null,
    "source": "FIASP"
  },
  {
    "title": "5ª BADIA IN ROSA",
    "date": "11/10/2025",
    "location": {
      "city": "Badia Polesine, Pza. Vittorio Emanuele",
      "province": "RO"
    },
    "poster": "https://drive.google.com/uc?export=view&id=18iiMFapEW0P9zfX0EZQQjbmPY-mI0AUx",
    "source": "FIASP"
  },
  {
    "title": "IN CAMMINO SULLE ORME DI PAPA GIOVANNI XXIII°",
    "date": "12/10/2025",
    "location": {
      "city": "Sotto Il Monte Giovanni XXIII° [Piazza Giovanni Paolo II°, Sala Civica]",
      "province": "BG"
    },
    "poster": null,
    "source": "FIASP"
  },
  {
    "title": "9ª CARDIORUNNING – RICORDANDO IL DOTT. DANIELE BONARA",
    "date": "12/10/2025",
    "location": {
      "city": "Crema [Palestra ITIS via Matilde di Canossa ,21",
      "province": "CR"
    },
    "poster": "https://drive.google.com/uc?export=view&id=1RD-CwIQSnxEk6O5FGtUvJi0zUddvw6NY",
    "source": "FIASP"
  },
  {
    "title": "10ª CAMMINATA NELLA VECCHIA LAUS",
    "date": "12/10/2025",
    "location": {
      "city": "Lodi Vecchio",
      "province": "LO"
    },
    "poster": "https://drive.google.com/uc?export=view&id=13tXkpxHXh9prtGCl67kJyTS0McioGi8g",
    "source": "FIASP"
  },
  {
    "title": "44ª CARATE TRA IL VERDE E L'ANTICO",
    "date": "12/10/2025",
    "location": {
      "city": "Carate Brianza",
      "province": "MB"
    },
    "poster": "https://drive.google.com/uc?export=view&id=1tHYuOXQacmfmnkxBQDrI3JDj4TODTOCa",
    "source": "FIASP"
  },
  {
    "title": "11ª CORRICAMBIAGO",
    "date": "12/10/2025",
    "location": {
      "city": "Cambiago - Oratorio Via V.Veneto 2",
      "province": "MI"
    },
    "poster": "https://drive.google.com/uc?export=view&id=15ECGm5X9EwBh2ipo4-Bf30FZ7cj6qczw",
    "source": "FIASP"
  },
  {
    "title": "4ª CORSA DELLA SAGRA",
    "date": "12/10/2025",
    "location": {
      "city": "P.zza E. Bottoli Cesole di Marcaria",
      "province": "MN"
    },
    "poster": null,
    "source": "FIASP"
  },
  {
    "title": "32ª MARCIA AVIS VILLANOVA",
    "date": "12/10/2025",
    "location": {
      "city": "VILLANOVA SULL'ARDA [P.le Pro Loco - Via Repubblica 36]",
      "province": "PC"
    },
    "poster": "https://drive.google.com/uc?export=view&id=1gGUP-KXyynY2FQo8jRr1pIspK-FI41aq",
    "source": "FIASP"
  },
  {
    "title": "5ª LA CLAUTANA",
    "date": "12/10/2025",
    "location": {
      "city": "Claut",
      "province": "PN"
    },
    "poster": "https://drive.google.com/uc?export=view&id=18Itbi1aC2YtEA1go7JHTwUaCahqzA_HR",
    "source": "FIASP"
  },
  {
    "title": "50° CIRCUITO DELL'ACCIAIO",
    "date": "12/10/2025",
    "location": {
      "city": "Terni",
      "province": "TR"
    },
    "poster": "https://drive.google.com/uc?export=view&id=1jhnmbN4MxHhTkq05Prd1rx6aaqS5CEBy",
    "source": "FIASP"
  },
  {
    "title": "13ª \"ATOR PAR RICLUS\"",
    "date": "12/10/2025",
    "location": {
      "city": "Racchiuso di Attimis-Ex Polveriera via P.Micca",
      "province": "UD"
    },
    "poster": null,
    "source": "FIASP"
  },
  {
    "title": "41° TROFEO PODISTI VALLE OLONA",
    "date": "12/10/2025",
    "location": {
      "city": "Gorla Maggiore",
      "province": "VA"
    },
    "poster": null,
    "source": "FIASP"
  },
  {
    "title": "7ª CAMMINATA \"SU E GIU' PER LE FONTANE\"",
    "date": "12/10/2025",
    "location": {
      "city": "Vo' di Brendola - Impianti Sportivi via Martiri delle Foibe",
      "province": "VI"
    },
    "poster": null,
    "source": "FIASP"
  },
  {
    "title": "19ª MARCIA DEL SORRISO",
    "date": "12/10/2025",
    "location": {
      "city": "Romano d'Ezzelino Villa Negri Via Romana Loc. San Giacomo",
      "province": "VI"
    },
    "poster": null,
    "source": "FIASP"
  },
  {
    "title": "39ª MARCIA DEL RISO",
    "date": "12/10/2025",
    "location": {
      "city": "Anson di Minerbe",
      "province": "VR"
    },
    "poster": null,
    "source": "FIASP"
  },
  {
    "title": "11ª NORDICANDO IL NORDIC WALKING IN VAL D'ILLASI",
    "date": "12/10/2025",
    "location": {
      "city": "Illasi [Cantina Sabaini, via Mormontea 6/a]",
      "province": "VR"
    },
    "poster": null,
    "source": "FIASP"
  },
  {
    "title": "7° URBAN TRAIL",
    "date": "18/10/2025",
    "location": {
      "city": "Montagnana",
      "province": "PD"
    },
    "poster": null,
    "source": "FIASP"
  },
  {
    "title": "6ª MARCIA \"VIN NOUF\"",
    "date": "18/10/2025",
    "location": {
      "city": "Villa d'Arco di Cordenons",
      "province": "PN"
    },
    "poster": "https://drive.google.com/uc?export=view&id=1Yh5lWuToxjRs79A_wqUgGlcAirPdh2uG",
    "source": "FIASP"
  },
  {
    "title": "6ª EDIZIONE  MANIFESTAZIONE \"TRA IL ROMANICO ED IL BREMBO\"",
    "date": "19/10/2025",
    "location": {
      "city": "Bonate Sotto [Via G.Garibaldi, 15]",
      "province": "BG"
    },
    "poster": null,
    "source": "FIASP"
  },
  {
    "title": "13ª BAOBAB RUNNING CUP",
    "date": "19/10/2025",
    "location": {
      "city": "Castenedolo [Oratorio Pio X°, Via G.Matteotti]",
      "province": "BS"
    },
    "poster": null,
    "source": "FIASP"
  },
  {
    "title": "19ª MARCIA UN PAESAGGIO DA RISCOPRIRE",
    "date": "19/10/2025",
    "location": {
      "city": "Dovera",
      "province": "CR"
    },
    "poster": null,
    "source": "FIASP"
  },
  {
    "title": "46ª TUTTI ASSIEME A MERATE",
    "date": "19/10/2025",
    "location": {
      "city": "Merate",
      "province": "LC"
    },
    "poster": null,
    "source": "FIASP"
  },
  {
    "title": "47ª QUATAR PASS IN DI CASIN D'INVRUGN - 2ª CAMMINATA ROSA",
    "date": "19/10/2025",
    "location": {
      "city": "Inveruno",
      "province": "MI"
    },
    "poster": "https://drive.google.com/uc?export=view&id=1gYpA12NydgPUu_Ysul5kLmBBmdvArAYl",
    "source": "FIASP"
  },
  {
    "title": "7ª DONGNOCCHIRUN",
    "date": "19/10/2025",
    "location": {
      "city": "Pessano con Bornago",
      "province": "MI"
    },
    "poster": "https://drive.google.com/uc?export=view&id=1HrXr1_eg9MeRVIT31wC8o578kyNH7avn",
    "source": "FIASP"
  },
  {
    "title": "6ª CAMMINATA DELLA SAGRA DI BELFORTE",
    "date": "19/10/2025",
    "location": {
      "city": "Belforte di Gazzuolo",
      "province": "MN"
    },
    "poster": null,
    "source": "FIASP"
  },
  {
    "title": "52ª \"LA BORGOVALTIDONE\"",
    "date": "19/10/2025",
    "location": {
      "city": "Borgonovo Val Tidone [Cantina Valtidone, Via Moretta 58]",
      "province": "PC"
    },
    "poster": "https://drive.google.com/uc?export=view&id=18Lfdbqd8oE6YfGCPjzxAlWSPMdy9sXxj",
    "source": "FIASP"
  },
  {
    "title": "COLLIAMO LE TERME",
    "date": "19/10/2025",
    "location": {
      "city": "Abano Terme (loc. Monteortone)",
      "province": "PD"
    },
    "poster": null,
    "source": "FIASP"
  },
  {
    "title": "20ª MARCIA BROVADA E MUSET",
    "date": "19/10/2025",
    "location": {
      "city": "Tauriano di Spilimbergo",
      "province": "PN"
    },
    "poster": "https://drive.google.com/uc?export=view&id=121rQ_vN8VQ6oEU1juymjShLjbxZjUkyc",
    "source": "FIASP"
  },
  {
    "title": "5° MEMORIAL DANIELE ROVEDA",
    "date": "19/10/2025",
    "location": {
      "city": "SANTA CRISTINA E BISSONE",
      "province": "PV"
    },
    "poster": null,
    "source": "FIASP"
  },
  {
    "title": "ATOR DE MONT",
    "date": "19/10/2025",
    "location": {
      "city": "MURIS DI RAGOGNA",
      "province": "UD"
    },
    "poster": null,
    "source": "FIASP"
  },
  {
    "title": "19ª MARCIA DELL'ABBAZIA",
    "date": "19/10/2025",
    "location": {
      "city": "Summaga di Portogruaro",
      "province": "VE"
    },
    "poster": "https://drive.google.com/uc?export=view&id=1FovhvolEKeq2M2tHk6F3xbYsVbj_6VXw",
    "source": "FIASP"
  },
  {
    "title": "14ª CAMINADA DEI COLLI BERICI \"LA SERATICENSE\"-1ª MARCIA IN ROSA",
    "date": "19/10/2025",
    "location": {
      "city": "Sarego - Via Valle,41",
      "province": "VI"
    },
    "poster": "https://drive.google.com/uc?export=view&id=1EW7hPlTUOlex7VRddrLjKHul9E8RKhx5",
    "source": "FIASP"
  },
  {
    "title": "21ª PASSEGGIATA \"PER MANO INSIEME\"",
    "date": "19/10/2025",
    "location": {
      "city": "Sant'Eusebio di Bassano del Grappa [Imp.Sportivi Villaggio S.Eusebio 43]",
      "province": "VI"
    },
    "poster": null,
    "source": "FIASP"
  },
  {
    "title": "52° SAFARI DEL COCCODRILLO",
    "date": "19/10/2025",
    "location": {
      "city": "Via Verona San Pietro di Legnago",
      "province": "VR"
    },
    "poster": null,
    "source": "FIASP"
  },
  {
    "title": "47ª TEREMOTATA - ULTRA MARATONA DELL'ISOLA",
    "date": "26/10/2025",
    "location": {
      "city": "Terno d'Isola [Centro Sportivo - Viale dello Sport, 10)",
      "province": "BG"
    },
    "poster": "https://drive.google.com/uc?export=view&id=1E-0GzhmJ4364WJh4GpJOqjh6OmJN5oCc",
    "source": "FIASP"
  },
  {
    "title": "11ª MARATALEA",
    "date": "26/10/2025",
    "location": {
      "city": "Albese con Cassano",
      "province": "CO"
    },
    "poster": null,
    "source": "FIASP"
  },
  {
    "title": "48ª CAMMINATA AVISINA - 44ª STRABRIANZA",
    "date": "26/10/2025",
    "location": {
      "city": "Seregno",
      "province": "MB"
    },
    "poster": null,
    "source": "FIASP"
  },
  {
    "title": "49ª CAMINADA DELLE VALLI",
    "date": "26/10/2025",
    "location": {
      "city": "Buscoldo",
      "province": "MN"
    },
    "poster": null,
    "source": "FIASP"
  },
  {
    "title": "38ª MARCIA AIDO",
    "date": "26/10/2025",
    "location": {
      "city": "San Nazzaro di Monticelli [Oratorio]",
      "province": "PC"
    },
    "poster": null,
    "source": "FIASP"
  },
  {
    "title": "15ª \"CORRI O CAMMINA AZZANO\"",
    "date": "26/10/2025",
    "location": {
      "city": "Azzano Decimo",
      "province": "PN"
    },
    "poster": "https://drive.google.com/uc?export=view&id=1WQVQyCn_gbG_Ybwy1dUj-2L8JyW-eyPo",
    "source": "FIASP"
  },
  {
    "title": "30° TROFEO MEMORIAL GIANANGELO GASPARINI",
    "date": "26/10/2025",
    "location": {
      "city": "Monticelli Terme",
      "province": "PR"
    },
    "poster": null,
    "source": "FIASP"
  },
  {
    "title": "MARCIA DEI VIVAI - 19ª MARCIA CON GLI ALPINI PER LORIA",
    "date": "26/10/2025",
    "location": {
      "city": "Loria",
      "province": "TV"
    },
    "poster": null,
    "source": "FIASP"
  },
  {
    "title": "24ª MARCIA INTERNAZIONALE DELLE CASTAGNE",
    "date": "26/10/2025",
    "location": {
      "city": "Magnano in Riviera",
      "province": "UD"
    },
    "poster": null,
    "source": "FIASP"
  },
  {
    "title": "3^ CAMMINATA DELLE STREGHE",
    "date": "26/10/2025",
    "location": {
      "city": "GRANTOLA",
      "province": "VA"
    },
    "poster": "https://drive.google.com/uc?export=view&id=1uwZEyGKaPqVcntpKGcOi-vXSRB--WadU",
    "source": "FIASP"
  },
  {
    "title": "9ª MARCIA CON GUSTO",
    "date": "26/10/2025",
    "location": {
      "city": "Sossano [Via Roma 84]",
      "province": "VI"
    },
    "poster": null,
    "source": "FIASP"
  },
  {
    "title": "17ª PASSEGGIATA TRA LE COLLINE DI MARSAN",
    "date": "26/10/2025",
    "location": {
      "city": "Marsan di Marostica [Parcheggio Scuole]",
      "province": "VI"
    },
    "poster": null,
    "source": "FIASP"
  },
  {
    "title": "35ª CASCINE E SENTIERI",
    "date": "01/11/2025",
    "location": {
      "city": "Casatenovo",
      "province": "LC"
    },
    "poster": null,
    "source": "FIASP"
  },
  {
    "title": "42ª BRONI-CIGOGNOLA MEMORIAL MASSIMO LORE'",
    "date": "01/11/2025",
    "location": {
      "city": "BRONI [Palabrera - via Galilei]",
      "province": "PV"
    },
    "poster": null,
    "source": "FIASP"
  },
  {
    "title": "DUE PASSI TRA I GORGHI 6° EDIZIONE",
    "date": "01/11/2025",
    "location": {
      "city": "Piazza San Giorgio TRECENTA",
      "province": "RO"
    },
    "poster": null,
    "source": "FIASP"
  },
  {
    "title": "21ª MARCIA NATURALISTICA PARCO DELLO STELLA",
    "date": "01/11/2025",
    "location": {
      "city": "Rivignano Teor",
      "province": "UD"
    },
    "poster": null,
    "source": "FIASP"
  },
  {
    "title": "51ª STRATREVIGLIO",
    "date": "02/11/2025",
    "location": {
      "city": "Treviglio [Piazza Cameroni 1]",
      "province": "BG"
    },
    "poster": "https://drive.google.com/uc?export=view&id=15KEYTZ7Hfj7ze2B-ORyMUyC4HBxtf-W1",
    "source": "FIASP"
  },
  {
    "title": "2ª CAMINADA CUDEGHINA",
    "date": "02/11/2025",
    "location": {
      "city": "CRESPIATICA",
      "province": "LO"
    },
    "poster": null,
    "source": "FIASP"
  },
  {
    "title": "8ª 8KORRERUN",
    "date": "02/11/2025",
    "location": {
      "city": "Correzzana - Via Principale 38",
      "province": "MB"
    },
    "poster": null,
    "source": "FIASP"
  },
  {
    "title": "ZIR DAI SANTS",
    "date": "02/11/2025",
    "location": {
      "city": "CHIOPRIS-VISCONE",
      "province": "UD"
    },
    "poster": null,
    "source": "FIASP"
  },
  {
    "title": "44° STRADAVERIO",
    "date": "02/11/2025",
    "location": {
      "city": "Daverio",
      "province": "VA"
    },
    "poster": null,
    "source": "FIASP"
  },
  {
    "title": "49ª MARCIA DELLE CASTAGNE - 10ª MARATONA STRABERICA",
    "date": "02/11/2025",
    "location": {
      "city": "Castegnero [P.za Mercato]",
      "province": "VI"
    },
    "poster": null,
    "source": "FIASP"
  },
  {
    "title": "2ª UN GIRO NEI CAMPI",
    "date": "02/11/2025",
    "location": {
      "city": "Raldon di S.Giovanni Lupatoto [Via S.Giovanni Bosco Centro Comunitario]",
      "province": "VR"
    },
    "poster": null,
    "source": "FIASP"
  },
  {
    "title": "CANONICHIAMO 2ª EDIZIONE",
    "date": "09/11/2025",
    "location": {
      "city": "Canonica d'Adda (Bg.) (Oratorio San Luigi - Via Vallazza, 6)",
      "province": "BG"
    },
    "poster": "https://drive.google.com/uc?export=view&id=1vXlhTOrKnhvWtHxeEzxO0GtueqiaMxso",
    "source": "FIASP"
  },
  {
    "title": "51ª MARCIA DEL TORRONE",
    "date": "09/11/2025",
    "location": {
      "city": "Cremona [Centro Sportivo Stradivari]",
      "province": "CR"
    },
    "poster": null,
    "source": "FIASP"
  },
  {
    "title": "10ª MARCIA OLTREADDA",
    "date": "09/11/2025",
    "location": {
      "city": "Corte Palasio",
      "province": "LO"
    },
    "poster": null,
    "source": "FIASP"
  },
  {
    "title": "7ª CORSA DI SAN MARTINO",
    "date": "09/11/2025",
    "location": {
      "city": "Veduggio con Colzano - Centro Sportivo via dell'Atleta",
      "province": "MB"
    },
    "poster": null,
    "source": "FIASP"
  },
  {
    "title": "32ª TRA CAMPI E ROGGE NEL PARCO MOLGORA",
    "date": "09/11/2025",
    "location": {
      "city": "Carugate",
      "province": "MI"
    },
    "poster": null,
    "source": "FIASP"
  },
  {
    "title": "42ª CJAMINADE PAI CUEI",
    "date": "09/11/2025",
    "location": {
      "city": "Pinzano al Tagliamento",
      "province": "PN"
    },
    "poster": null,
    "source": "FIASP"
  },
  {
    "title": "47ª ADASI IN T'LA FUMARA",
    "date": "09/11/2025",
    "location": {
      "city": "VICOFERTILE",
      "province": "PR"
    },
    "poster": null,
    "source": "FIASP"
  },
  {
    "title": "46ª MARCIA DEL DINDIAT",
    "date": "09/11/2025",
    "location": {
      "city": "Aiello del Friuli",
      "province": "UD"
    },
    "poster": null,
    "source": "FIASP"
  },
  {
    "title": "53ª LA BROSEMADA",
    "date": "09/11/2025",
    "location": {
      "city": "Dueville [Ex Lanerossi Via B.Fracasso]",
      "province": "VI"
    },
    "poster": null,
    "source": "FIASP"
  },
  {
    "title": "32ª CAMINADA DI SAN MARTINO",
    "date": "09/11/2025",
    "location": {
      "city": "Legnago [Via Frattini 14]",
      "province": "VR"
    },
    "poster": null,
    "source": "FIASP"
  },
  {
    "title": "24ª MARCIA SULL'ALPE E SUL SAN GENESIO",
    "date": "16/11/2025",
    "location": {
      "city": "Castello Brianza",
      "province": "LC"
    },
    "poster": null,
    "source": "FIASP"
  },
  {
    "title": "42ª MARCIA DELLA FIERA DI CODOGNO",
    "date": "16/11/2025",
    "location": {
      "city": "Codogno",
      "province": "LO"
    },
    "poster": null,
    "source": "FIASP"
  },
  {
    "title": "5ª GESS IN RUN",
    "date": "16/11/2025",
    "location": {
      "city": "Gessate",
      "province": "MI"
    },
    "poster": null,
    "source": "FIASP"
  },
  {
    "title": "18ª MARCIA DI SAN MARTINO",
    "date": "16/11/2025",
    "location": {
      "city": "San Martino al Tagliamento",
      "province": "PN"
    },
    "poster": null,
    "source": "FIASP"
  },
  {
    "title": "31ª CAMMINATA P.A. SALSOMAGGIORE - 40ª STAFFETTA DI SANTA LUCIA",
    "date": "16/11/2025",
    "location": {
      "city": "Salsomaggiore Terme",
      "province": "PR"
    },
    "poster": null,
    "source": "FIASP"
  },
  {
    "title": "26ª MARCIA CASARILESE MEMORIAL GRITTI NAZZARENO",
    "date": "16/11/2025",
    "location": {
      "city": "CASARILE",
      "province": "PV"
    },
    "poster": null,
    "source": "FIASP"
  },
  {
    "title": "45ª MARCIA TRA I DINTORNI",
    "date": "16/11/2025",
    "location": {
      "city": "Badia Polesine P.za Marconi",
      "province": "RO"
    },
    "poster": null,
    "source": "FIASP"
  },
  {
    "title": "12ª CORSE PIGNOTE",
    "date": "16/11/2025",
    "location": {
      "city": "ARTEGNA",
      "province": "UD"
    },
    "poster": null,
    "source": "FIASP"
  },
  {
    "title": "GORLONGA 2025",
    "date": "16/11/2025",
    "location": {
      "city": "Gorla Minore",
      "province": "VA"
    },
    "poster": null,
    "source": "FIASP"
  },
  {
    "title": "47ª MARCIA PER LE PRATERIE",
    "date": "16/11/2025",
    "location": {
      "city": "Poianella di Bressanvido [Palestra Comunale-P.za IV Novembre]",
      "province": "VI"
    },
    "poster": null,
    "source": "FIASP"
  },
  {
    "title": "3° CAMMINATA TRA LE VERZE MORETTE DI VERONELLA",
    "date": "16/11/2025",
    "location": {
      "city": "VERONELLA - PIAZZA GUGLIELMO MARCONI",
      "province": "VR"
    },
    "poster": null,
    "source": "FIASP"
  },
  {
    "title": "51ª QUATTRO PONTI SUL LAMBRO",
    "date": "23/11/2025",
    "location": {
      "city": "Lambrugo",
      "province": "CO"
    },
    "poster": null,
    "source": "FIASP"
  },
  {
    "title": "4ª \"CORRI BAGNOLO\"",
    "date": "23/11/2025",
    "location": {
      "city": "Bagnolo-Centro Anziani Opera Pia",
      "province": "CR"
    },
    "poster": null,
    "source": "FIASP"
  },
  {
    "title": "41ª CAMMINATA DI MARIGNANO",
    "date": "23/11/2025",
    "location": {
      "city": "Zivido di San Giuliano Milanese",
      "province": "MI"
    },
    "poster": null,
    "source": "FIASP"
  },
  {
    "title": "3ª TRA LI AGHIS E I MULINS DI BAGNAROLA",
    "date": "23/11/2025",
    "location": {
      "city": "Bagnarola di Sesto al Reghena",
      "province": "PN"
    },
    "poster": null,
    "source": "FIASP"
  },
  {
    "title": "45ª MARCIA INTERNAZIONALE PER LE COLLINE DI FAGAGNA",
    "date": "23/11/2025",
    "location": {
      "city": "Fagagna",
      "province": "UD"
    },
    "poster": null,
    "source": "FIASP"
  },
  {
    "title": "40ª STRAROSSANO",
    "date": "23/11/2025",
    "location": {
      "city": "Rossano Veneto [Villa Caffo Via Bassano 21]",
      "province": "VI"
    },
    "poster": null,
    "source": "FIASP"
  },
  {
    "title": "10° LE PESTE SULL'ADIGE",
    "date": "23/11/2025",
    "location": {
      "city": "Roverchiaretta, Via Porto",
      "province": "VR"
    },
    "poster": null,
    "source": "FIASP"
  },
  {
    "title": "24ª STAFFETTA 24X1 ORA TELETHON",
    "date": "29/11/2025",
    "location": {
      "city": "udine",
      "province": "UD"
    },
    "poster": null,
    "source": "FIASP"
  },
  {
    "title": "15° STRANTEGNATE",
    "date": "30/11/2025",
    "location": {
      "city": "Antegnate - Centro Incontro Cultura fronte Auchan",
      "province": "BG"
    },
    "poster": "https://drive.google.com/uc?export=view&id=15EPL7UNMXQlwQ7NazcXjCYnI-2iUni73",
    "source": "FIASP"
  },
  {
    "title": "INSIEME E' PIU' BELLO",
    "date": "30/11/2025",
    "location": {
      "city": "Lecco",
      "province": "LC"
    },
    "poster": null,
    "source": "FIASP"
  },
  {
    "title": "24ª WALKING TOGETHER",
    "date": "30/11/2025",
    "location": {
      "city": "Somaglia",
      "province": "LO"
    },
    "poster": null,
    "source": "FIASP"
  },
  {
    "title": "13ª I SETTE CAMPANILI",
    "date": "30/11/2025",
    "location": {
      "city": "Montesiro di Besana Brianza",
      "province": "MB"
    },
    "poster": "https://drive.google.com/uc?export=view&id=1b9dDNL0nUtWjwpCwfPrTxodu6eZ5pFsy",
    "source": "FIASP"
  },
  {
    "title": "43ª QUATRI PAS TA LA PRADERIA",
    "date": "30/11/2025",
    "location": {
      "city": "Istrago di Spilimbergo",
      "province": "PN"
    },
    "poster": null,
    "source": "FIASP"
  },
  {
    "title": "34^ MARCIA DELLA PREMIAZIONE",
    "date": "30/11/2025",
    "location": {
      "city": "VILLAZZANO CEN. SPORT. DON O. SPADA",
      "province": "TN"
    },
    "poster": null,
    "source": "FIASP"
  },
  {
    "title": "54ª A PEE IN BRUGHEA",
    "date": "30/11/2025",
    "location": {
      "city": "Busto Arsizio",
      "province": "VA"
    },
    "poster": null,
    "source": "FIASP"
  },
  {
    "title": "45ª MARCIA DEI 4 MULINI - 42° TROFEO PRO LOCO",
    "date": "30/11/2025",
    "location": {
      "city": "Bolzano Vicentino via C.Battisti",
      "province": "VI"
    },
    "poster": null,
    "source": "FIASP"
  },
  {
    "title": "ASPETTANDO IL NATALE CON LE RANE",
    "date": "30/11/2025",
    "location": {
      "city": "via del Redentore,4 Vangadizza di Legnago",
      "province": "VR"
    },
    "poster": "https://drive.google.com/uc?export=view&id=1ddJup5wBeJ_97L05lpmTO1wf4BmKE4ev",
    "source": "FIASP"
  },
  {
    "title": "CORRI PER TELETHON",
    "date": "07/12/2025",
    "location": {
      "city": "Bonate Sotto (Centro Socio Culturale Via S.. Sebastiano, 3)",
      "province": "BG"
    },
    "poster": null,
    "source": "FIASP"
  },
  {
    "title": "5ª CHRISTMAS RUNNING",
    "date": "07/12/2025",
    "location": {
      "city": "Casatico di Marcaria-Filos",
      "province": "MN"
    },
    "poster": null,
    "source": "FIASP"
  },
  {
    "title": "MARCIA IN ROSA",
    "date": "07/12/2025",
    "location": {
      "city": "Gonars",
      "province": "UD"
    },
    "poster": null,
    "source": "FIASP"
  },
  {
    "title": "13ª MARCIA DELLE RISORGIVE - 10ª MARCIA DEI BABBI NATALE",
    "date": "07/12/2025",
    "location": {
      "city": "Villaverla [Via Stadio]",
      "province": "VI"
    },
    "poster": null,
    "source": "FIASP"
  },
  {
    "title": "27ª MARCIA DEI TRI CAPITEI",
    "date": "07/12/2025",
    "location": {
      "city": "Palesella di Cerea",
      "province": "VR"
    },
    "poster": null,
    "source": "FIASP"
  },
  {
    "title": "54ª MAGNUS CURSUS POMI",
    "date": "08/12/2025",
    "location": {
      "city": "Cremella",
      "province": "LC"
    },
    "poster": null,
    "source": "FIASP"
  },
  {
    "title": "1ª BABBO RUN",
    "date": "08/12/2025",
    "location": {
      "city": "Ospedaletto Lodigiano",
      "province": "LO"
    },
    "poster": null,
    "source": "FIASP"
  },
  {
    "title": "9ª MARCIA DEI BABBI NATALE",
    "date": "08/12/2025",
    "location": {
      "city": "San Martino dall'Argine",
      "province": "MN"
    },
    "poster": null,
    "source": "FIASP"
  },
  {
    "title": "35ª MARCIA DELL'IMMACOLATA",
    "date": "08/12/2025",
    "location": {
      "city": "RONCAGLIA [VIA CHIESA, 23]",
      "province": "PC"
    },
    "poster": null,
    "source": "FIASP"
  },
  {
    "title": "10ª PORTONS DI NADAL",
    "date": "08/12/2025",
    "location": {
      "city": "Toppo di Travesio - via Fornace",
      "province": "PN"
    },
    "poster": null,
    "source": "FIASP"
  },
  {
    "title": "CORSA DELLA COMETA A CASTELNOVO BARIANO",
    "date": "08/12/2025",
    "location": {
      "city": "Castelnovo Bariano RO di fronte al Municipio Via Municipale,",
      "province": "RO"
    },
    "poster": null,
    "source": "FIASP"
  },
  {
    "title": "19ª CJAMINADE DI S. LUSSIE",
    "date": "08/12/2025",
    "location": {
      "city": "Gemona del Friuli",
      "province": "UD"
    },
    "poster": null,
    "source": "FIASP"
  },
  {
    "title": "45° ULTIMO PASSO D'AUTUNNO - 16ª MARATONA DEI COLLI BERICI",
    "date": "08/12/2025",
    "location": {
      "city": "Orgiano [Scuola Media G.Piovene Via D.Alighieri]",
      "province": "VI"
    },
    "poster": null,
    "source": "FIASP"
  },
  {
    "title": "48ª MARCIA DEL GIOCATTOLO",
    "date": "08/12/2025",
    "location": {
      "city": "Verona [P.za Brà]",
      "province": "VR"
    },
    "poster": null,
    "source": "FIASP"
  },
  {
    "title": "18ª CAMMINATA \"BERGAMO HA UN CUORE GRANDE\" PER LA SOLIDARIETA'",
    "date": "14/12/2025",
    "location": {
      "city": "Bergamo [ex Ospedale Neuropscichiatrico, Borgo Palazzo 130]",
      "province": "BG"
    },
    "poster": null,
    "source": "FIASP"
  },
  {
    "title": "BABBO NATALE DI CORSA",
    "date": "14/12/2025",
    "location": {
      "city": "Rovellasca",
      "province": "CO"
    },
    "poster": null,
    "source": "FIASP"
  },
  {
    "title": "39ª CAMMINATA PER GLI AMICI SCOMPARSI",
    "date": "14/12/2025",
    "location": {
      "city": "Palazzo Pignano",
      "province": "CR"
    },
    "poster": null,
    "source": "FIASP"
  },
  {
    "title": "26ª CORSA PODISTICA  SAN MICHELE  SUI COLLI DEL GARDA",
    "date": "14/12/2025",
    "location": {
      "city": "Park via degli Alpini- Monzambano",
      "province": "MN"
    },
    "poster": null,
    "source": "FIASP"
  },
  {
    "title": "35ª MARCIA DI SANTA LUCIA",
    "date": "14/12/2025",
    "location": {
      "city": "Porcia",
      "province": "PN"
    },
    "poster": null,
    "source": "FIASP"
  },
  {
    "title": "37ª MARCIA DEL MANDORLATO",
    "date": "14/12/2025",
    "location": {
      "city": "Cologna VENETA",
      "province": "VR"
    },
    "poster": null,
    "source": "FIASP"
  },
  {
    "title": "4ª SGANBADA DEI BABBI NATALE",
    "date": "20/12/2025",
    "location": {
      "city": "BARUCHELLA",
      "province": "RO"
    },
    "poster": null,
    "source": "FIASP"
  },
  {
    "title": "52ª STRACADA",
    "date": "21/12/2025",
    "location": {
      "city": "Seveso",
      "province": "MB"
    },
    "poster": null,
    "source": "FIASP"
  },
  {
    "title": "CAMMINATA DI NATALE PER SOLIDARIETA'",
    "date": "21/12/2025",
    "location": {
      "city": "Trezzo sull'Adda",
      "province": "MI"
    },
    "poster": null,
    "source": "FIASP"
  },
  {
    "title": "BABBO CHRISTMAS RUN",
    "date": "21/12/2025",
    "location": {
      "city": "BASTIA DI ROVOLON",
      "province": "PD"
    },
    "poster": null,
    "source": "FIASP"
  },
  {
    "title": "13ª MARCIA DI BABBO NATALE",
    "date": "21/12/2025",
    "location": {
      "city": "Spilimbergo",
      "province": "PN"
    },
    "poster": null,
    "source": "FIASP"
  },
  {
    "title": "33ª DICEMBRINA CERVIGNANESE",
    "date": "21/12/2025",
    "location": {
      "city": "Cervignano",
      "province": "UD"
    },
    "poster": null,
    "source": "FIASP"
  },
  {
    "title": "CORSA DEI BABBI NATALE",
    "date": "21/12/2025",
    "location": {
      "city": "Zugliano Via Marconi",
      "province": "VI"
    },
    "poster": null,
    "source": "FIASP"
  },
  {
    "title": "13ª FIACCOLATA DI NATALE",
    "date": "24/12/2025",
    "location": {
      "city": "Como",
      "province": "CO"
    },
    "poster": null,
    "source": "FIASP"
  },
  {
    "title": "14ª CORRI CHE TI PASSA\"CAMMINATA DELLA VIGILIA\"",
    "date": "24/12/2025",
    "location": {
      "city": "Piazza Don Primo Mazzolari-Cicognara di Viadana",
      "province": "MN"
    },
    "poster": null,
    "source": "FIASP"
  },
  {
    "title": "34ª MARCIA DEL RADICCHIO ROSSO DI ASIGLIANO",
    "date": "26/12/2025",
    "location": {
      "city": "Asigliano Veneto [Municipio Via IV Novembre 3]",
      "province": "VI"
    },
    "poster": null,
    "source": "FIASP"
  },
  {
    "title": "35ª CAMMINATA DI FINE ANNO",
    "date": "28/12/2025",
    "location": {
      "city": "Novedrate",
      "province": "CO"
    },
    "poster": null,
    "source": "FIASP"
  },
  {
    "title": "47ª MARATONINA DI SAN SILVESTRO",
    "date": "28/12/2025",
    "location": {
      "city": "CUSIGNANA - GIAVERA DEL MONTELLO",
      "province": "TV"
    },
    "poster": null,
    "source": "FIASP"
  }
]